{"venues":[{"active":true,"address":"Skolegaten 3","city":"Grimstad","country":"no","created":"2016-05-02T21:44:16Z","description":"Apotektergaarden brews their own beer, makes amazing food and has the best backyard during the summer.\nApotektergaarden is a Never Ending Power™ venue, offering Rescue Juice and unlimited refills for any Rescue Juice user.","descriptions":[],"id":"28","latitude":58.341747,"links":[],"longitude":8.593476,"name":"Apotektergaarden","never_ending":true,"path_part":"apotektergaarden-grimstad","phone":"","type":"bar","updated":"2016-05-02T21:44:16Z","urls":{},"wifi_ssid":"","zip":"4876"},{"active":true,"address":"Bygdøy allé 18","city":"Oslo","country":"no","created":"2016-05-02T21:44:16Z","description":"BAR with their Social eating concept serves dished best eaten together. They have an exclusive club in the based during the night.\nBAR Bygdøy Allé is a Rescue Juice venue and offer Rescue Juice for sale at the bar.","descriptions":[],"id":"13","latitude":59.916285,"links":[],"longitude":10.711593,"name":"BAR Bygdøy Allé","never_ending":false,"path_part":"bar-bygdoy-alle","phone":"","type":"bar","updated":"2016-05-02T21:44:16Z","urls":{},"wifi_ssid":"","zip":"0262"},{"active":true,"address":"Bryggegangen 6","city":"Oslo","country":"no","created":"2016-05-02T21:44:16Z","description":"This place is legendary for it’s summer parties and lunches that turn into all nighters. BAR i located on the sunny side of Tjuvholmen and offer up great cocktails and food that is made for sharing. Bring friends!\nBAR Tjuvholmen offer Rescue Juice.\n","descriptions":[],"id":"7","latitude":59.908764,"links":[],"longitude":10.722026,"name":"BAR Tjuvholmen","never_ending":false,"path_part":"bar-tjuvholmen","phone":"","type":"bar","updated":"2016-05-02T21:44:16Z","urls":{},"wifi_ssid":"","zip":"0178"},{"active":true,"address":"Maridalsveien 17","city":"Oslo","country":"no","created":"2016-05-02T21:44:16Z","description":"BAR Vulkan with it’s amazing roof top bar during the summer and spacious lounge and dinner area is one of the more popular places in the area. Their social eating concept makes it a great place to hang out, party and eat with friends.\nBAR Vulkan is a Rescue Juice™ venue, offering Rescue Juice.\nMonday 8:00 am — 11:30 pm\nTuesday 8:00 am — 11:30 pm\nWednesday 8:00 am — 11:30 pm\nThursday 8:00 am — 11:30 pm \n","descriptions":[],"id":"45","latitude":59.922218,"links":[],"longitude":10.752046,"name":"BAR Vulkan","never_ending":true,"path_part":"bar-vulkan","phone":"","type":"bar","updated":"2016-05-02T21:44:16Z","urls":{},"wifi_ssid":"","zip":"0178"},{"active":true,"address":"Tollbodgata 5","city":"Kristiansand","country":"no","created":"2016-05-02T21:44:16Z","description":"Både & er en klassisk pub hvor vi serverer skikkelig pubmat og solid norsk husmannskost. Er du på farten har vi egen take away meny. Vi har en rekke både spennende og tradisjonelle retter på menyen. Du skal spise like godt her som ellers på Bakgården!\nDu kan nyte et bredt utvalg av drikke med alle rettigheter. Vi har et bredt utvalg av single malt whiskies og byens største aquavitsamling. Godt øl står naturlig nok i sentrum og ølsortimentet utvides stadig både på fat og flaske. Dette er stedet for den gode ølopplevelsen. \nUtvalgte fotballkamper vises på storskjerm. Eller hvorfor ikke samles en gjeng rundt dartskiva, raflekoppen eller noen av våre spill i vår gjestfrie atmosfære.    \nVi har åpent syv dager i uken hele året. Vi treffes på Både &.","descriptions":[],"id":"16","latitude":58.144294,"links":[],"longitude":7.99362,"name":"Bakgården Både Og","never_ending":true,"path_part":"bakgarden-kristiansand","phone":"","type":"bar","updated":"2016-05-02T21:44:16Z","urls":{},"wifi_ssid":"","zip":"4611"},{"active":true,"address":"Hemsedal - Sentrum","city":"Hemsedal","country":"no","created":"2016-05-02T21:44:16Z","description":"BAR(T) is Hemsedals most popular club with 6 bars, top dj`s, delicious drinks and great bartenders. You find us at Fanitullen in the city center. Guestlist or groups please contact us on phone +47 46 54 09 68 or mail al716@peppes.no\n\n","descriptions":[],"id":"31","latitude":60.863016,"links":[],"longitude":8.552186,"name":"Bart(T) Hemsedal","never_ending":false,"path_part":"bart-hemsedal","phone":"4746540968","type":"bar","updated":"2016-05-02T21:44:16Z","urls":{},"wifi_ssid":"","zip":"4876"},{"active":true,"address":"Storgaten 28","city":"Grimstad","country":"no","created":"2016-05-02T21:44:17Z","description":"Cafe Galleri is an institution in Grimstad, one of the go to places with it’s great roof top bar during the summer, and two story club inside. Cafe Galleri offers club nights, live music, stand up and quiz nights.\nCafe Galleri is a Never Ending Power™ venue, offering Rescue Juice and unlimited refills for any Rescue Juice user. ","descriptions":[],"id":"47","latitude":58.342361,"links":[],"longitude":8.592611,"name":"Cafe Galleri","never_ending":false,"path_part":"cafe-galleri-grimstad","phone":"","type":"bar","updated":"2016-05-02T21:44:17Z","urls":{},"wifi_ssid":"","zip":"4876"},{"active":true,"address":"Torggata 11","city":"Oslo","country":"no","created":"2016-05-02T21:44:16Z","description":"Perfectly located in the city center Cafe Sør offers great food, coffee and a relaxed environment. Free wifi and the ability to sit down and do some work during the day. Cafe Sør turns into a club during the night with great DJ’s spinning the records late into the night.\nCafe Sør is a Never Ending Power™ venue, offering Rescue Juice and unlimited refills for any Rescue Juice user.\n\n ","descriptions":[],"id":"4","latitude":59.914094,"links":[],"longitude":10.748333,"name":"Cafe Sør","never_ending":true,"path_part":"cafe-sor-oslo","phone":"","type":"bar","updated":"2016-05-02T21:44:16Z","urls":{},"wifi_ssid":"","zip":"0181"},{"active":true,"address":"Frognerveien 2","city":"Oslo","country":"no","created":"2016-05-02T21:44:16Z","description":"Located in in the beginning Frognerveien it surly has a prime location in Oslo west. Champagneria is a great place for tapas and bubbles, it’s extensive wine menu and great prices makes this one of the go to places for those who want to eat well and drink bubbles.\nChampagneria is a Never Ending Power™ venue, offering Rescue Juice and unlimited refills for any Rescue Juice user.","descriptions":[],"id":"42","latitude":59.915344,"links":[],"longitude":10.716998,"name":"Champagneria Frogner","never_ending":true,"path_part":"champagneria-frogner","phone":"","type":"bar","updated":"2016-05-02T21:44:16Z","urls":{},"wifi_ssid":"","zip":"0257"},{"active":true,"address":"Lienvegen 11","city":"Geilo","country":"no","created":"2016-05-02T21:44:16Z","description":"Located inside the Highland Lodge Hotel you'll find the best restaurant in Geilo. High quality Norwegian produce made into a wide array of tapas. ","descriptions":[],"id":"40","latitude":60.53436,"links":[],"longitude":8.212268,"name":"Champagneria Highland Hotell","never_ending":true,"path_part":"champagneria-highland-hotell","phone":"","type":"bar","updated":"2016-05-02T21:44:16Z","urls":{},"wifi_ssid":"","zip":"3580"},{"active":true,"address":"3561 Hemsedal","city":"Hemsedal","country":"no","created":"2016-05-02T21:44:16Z","description":"Forage disrupt kale chips authentic, retro gluten-free lo-fi brunch scenester wolf aesthetic umami shabby chic messenger bag. Chartreuse organic ugh, health goth lumbersexual authentic hammock locavore chambray whatever literally tacos kickstarter. Biodiesel echo park deep v irony, tumblr listicle keffiyeh mixtape stumptown pork belly paleo synth taxidermy chambray kinfolk. Bicycle rights +1 chia selvage godard. Distillery pitchfork chia, waistcoat sriracha tattooed blog deep v cray gluten-free next level ethical. Art party meditation fingerstache, PBR&B irony williamsburg before they sold out blog locavore knausgaard. Meggings biodiesel tattooed pitchfork distillery.\n\nYOLO butcher quinoa everyday carry seitan ethical. Art party 3 wolf moon pour-over cardigan. Occupy street art cardigan, fanny pack portland PBR&B meditation flannel cronut asymmetrical organic blog drinking vinegar. Sustainable freegan lo-fi, celiac butcher cornhole salvia heirloom keffiyeh. Lumbersexual trust fund etsy disrupt asymmetrical tofu normcore, four loko leggings quinoa locavore lomo. Kombucha four dollar toast cronut, pug etsy sriracha mustache godard roof party meditation thundercats try-hard bitters you probably haven’t heard of them sartorial. Pitchfork artisan roof party keytar beard bitters.\n","descriptions":[],"id":"39","latitude":60.863333,"links":[],"longitude":8.551958,"name":"Champagneria Montana","never_ending":true,"path_part":"champagneria-montana-hemsedal","phone":"","type":"bar","updated":"2016-05-02T21:44:16Z","urls":{},"wifi_ssid":"","zip":"4876"},{"active":true,"address":"Nedre Langgate 28B","city":"Tønsberg","country":"no","created":"2016-05-02T21:44:16Z","description":"Champagneria Marina is locate down by the water front in Tønsberg. Authentic spanish tapas with a twist this venue sure is a favorite for small bites and bottles of bubbles.\nChampagneria is a Never Ending Power Venue and offer free exchange of your Rescue Juice.\n","descriptions":[],"id":"41","latitude":59.266504,"links":[],"longitude":10.405883,"name":"Champagneria Tønsberg","never_ending":true,"path_part":"champagneria-tonsberg","phone":"","type":"bar","updated":"2016-05-02T21:44:16Z","urls":{},"wifi_ssid":"","zip":"3126"},{"active":true,"address":"Grønland 10","city":"Oslo","country":"no","created":"2016-05-02T21:44:16Z","description":"Dattera til Hagen is one the go to places located on the east side of Oslo called Grønnland. Their popular back yard that serves up awesome DJ´s and concerts during the summer is a prime location for going out with friends or a large party. Dattera is know for a great Tapas and a good selection of beers and wine.\nDattera til Hagen is a Never Ending Power Venue and offer free exchange of your Rescue Juice.\n","descriptions":[],"id":"8","latitude":59.913269,"links":[],"longitude":10.760133,"name":"Dattera til Hagen","never_ending":true,"path_part":"dattera-til-hagen-oslo","phone":"","type":"bar","updated":"2016-05-02T21:44:16Z","urls":{},"wifi_ssid":"","zip":"0188"},{"active":true,"address":"Klingenberggata 4","city":"Oslo","country":"no","created":"2016-05-02T21:44:17Z","description":"Dark wood, great selection of whiskey.  2-story pub with bar menu, big screen live sports & weekend, late-night DJs and several pool tables. One of the best \"secret\" backyards in down town Oslo.","descriptions":[],"id":"49","latitude":59.913586,"links":[],"longitude":10.7310758,"name":"Dr.Jekyll's","never_ending":false,"path_part":"dr-jekylls-pub-oslo","phone":"","type":"bar","updated":"2016-05-02T21:44:17Z","urls":{},"wifi_ssid":"","zip":"0161"},{"active":true,"address":"Skagen 13","city":"Stavanger","country":"no","created":"2016-05-02T21:44:17Z","description":"Døgnvill is the go to place for burgers and shakes in the Vulkan area. Their burgers are amazing not to mention their milkshakes (add a shot of burbon for that extra YOLO factor).\nAll Døgnvill food is home made and cared for before serving which makes this one of the best burger joints in Oslo. Døgnvill is a Never Ending Power™ venue, offering Rescue Juice and unlimited refills for any Rescue Juice user.","descriptions":[],"id":"50","latitude":58.97089,"links":[],"longitude":5.73194,"name":"Døgnvill Stavanger","never_ending":true,"path_part":"dognvill-burger-stavanger","phone":"","type":"restaurant","updated":"2016-05-02T21:44:17Z","urls":{},"wifi_ssid":"","zip":"4006"},{"active":true,"address":"Lille Stranden 10","city":"Oslo","country":"no","created":"2016-05-02T21:44:16Z","description":"Døgnvill is the go to place for burgers and shakes in the Tjuvholmen area. Their burgers are amazing not to mention their milkshakes (add a shot of burbon for that extra YOLO factor). All Døgnvill food is home made and cared for before serving which makes this one of the best burger joints in Oslo.\nDøgnvill is a Never Ending Power™ venue, offering Rescue Juice and unlimited refills for any Rescue Juice user.\n","descriptions":[],"id":"5","latitude":59.908418,"links":[],"longitude":10.723567,"name":"Døgnvill Tjuvholmen","never_ending":true,"path_part":"dognvill-tjuvholmen","phone":"","type":"bar","updated":"2016-05-02T21:44:16Z","urls":{},"wifi_ssid":"","zip":"0252"},{"active":true,"address":"Vulkan 12","city":"Oslo","country":"no","created":"2016-05-02T21:44:16Z","description":"Døgnvill is the go to place for burgers and shakes in the Vulkan area. Their burgers are amazing not to mention their milkshakes (add a shot of burbon for that extra YOLO factor). All Døgnvill food is home made and cared for before serving which makes this one of the best burger joints in Oslo.\nDøgnvill is a Never Ending Power™ venue, offering Rescue Juice and unlimited refills for any Rescue Juice user.\n","descriptions":[],"id":"6","latitude":59.921828,"links":[],"longitude":10.751469,"name":"Døgnvill Vulkan","never_ending":true,"path_part":"dognvill-vulkan","phone":"","type":"bar","updated":"2016-05-02T21:44:16Z","urls":{},"wifi_ssid":"","zip":"0178"},{"active":true,"address":"Akersgata 28","city":"Oslo","country":"no","created":"2016-05-02T21:44:16Z","description":"Follestad is the place to go if you like high quality mens wear. Follestad has hand picked and curated amazing pieces of menswear in their boutique.\nFollestad offer Rescue Juice.","descriptions":[],"id":"20","latitude":59.913468,"links":[],"longitude":10.74204,"name":"Follestad Eger","never_ending":false,"path_part":"follestad-eger","phone":"","type":"bar","updated":"2016-05-02T21:44:16Z","urls":{},"wifi_ssid":"","zip":"0158"},{"active":true,"address":"Storgata 6","city":"Oslo","country":"no","created":"2016-05-02T21:44:16Z","description":"Follestad is the place to go if you like high quality mens wear. Follestad has hand picked and curated amazing pieces of menswear in their boutique.\nFollestad offer Rescue Juice.\n","descriptions":[],"id":"18","latitude":60.142759,"links":[],"longitude":11.171831,"name":"Follestad Jessheim","never_ending":false,"path_part":"follestad-jessheim","phone":"","type":"bar","updated":"2016-05-02T21:44:16Z","urls":{},"wifi_ssid":"","zip":"2050"},{"active":true,"address":"Karl Johans gate 37","city":"Oslo","country":"no","created":"2016-05-02T21:44:16Z","description":"Follestad is the place to go if you like high quality mens wear. Follestad has hand picked and curated amazing pieces of menswear in their boutique.\nFollestad offer Rescue Juice.\n","descriptions":[],"id":"21","latitude":59.914197,"links":[],"longitude":10.737901,"name":"Follestad Paleet","never_ending":false,"path_part":"follestad-paleet","phone":"","type":"bar","updated":"2016-05-02T21:44:16Z","urls":{},"wifi_ssid":"","zip":"0162"},{"active":true,"address":"Støperiveien 5","city":"Oslo","country":"no","created":"2016-05-02T21:44:16Z","description":"Follestad is the place to go if you like high quality mens wear. Follestad has hand picked and curated amazing pieces of menswear in their boutique.Follestad offer Rescue Juice.\n","descriptions":[],"id":"19","latitude":59.947286,"links":[],"longitude":11.007331,"name":"Follestad Strømmen","never_ending":false,"path_part":"follestad-strommen","phone":"","type":"bar","updated":"2016-05-02T21:44:16Z","urls":{},"wifi_ssid":"","zip":"2010"},{"active":true,"address":"Valkyriegata 5","city":"Oslo","country":"no","created":"2016-05-02T21:44:16Z","description":"Follestad is the place to go if you like high quality mens wear. Follestad has hand picked and curated amazing pieces of menswear in their boutique.\nFollestad offer Rescue Juice.\n","descriptions":[],"id":"22","latitude":59.928398,"links":[],"longitude":10.718322,"name":"Follestad Valkyrien","never_ending":false,"path_part":"follestad-valkyrien","phone":"","type":"bar","updated":"2016-05-02T21:44:16Z","urls":{},"wifi_ssid":"","zip":"0366"},{"active":true,"address":"Nedre Langgate 18","city":"Tønsberg","country":"no","created":"2016-05-02T21:44:16Z","description":"Perfectly located at Tønsberg Brygge you’ll find Foynhagen, a green oasis situated close to the popular waterfront. Built by a local celebrity called Svend Foyn a pioneer in the Norwegian fishing industry, now converted from house to the biggest event venue in Tønsberg city.\n","descriptions":[],"id":"10","latitude":59.26532684,"links":[],"longitude":10.40721774,"name":"Foynhagen Sense","never_ending":false,"path_part":"foynhagen-tonsberg","phone":"","type":"bar","updated":"2016-05-02T21:44:16Z","urls":{},"wifi_ssid":"","zip":"3126"},{"active":true,"address":"Øvre Holmegate 24B","city":"Stavanger","country":"no","created":"2016-05-02T21:44:17Z","description":"Definitely one of the best bars in town. From the cosiest experience over board games to the best live music over an amazing cocktails! Service, venue, staff all great experience.","descriptions":[],"id":"51","latitude":58.97275,"links":[],"longitude":5.73312,"name":"Hanekam","never_ending":true,"path_part":"hanekam-stavagner","phone":"78010299","type":"bar","updated":"2016-05-02T21:44:17Z","urls":{},"wifi_ssid":"","zip":"4006"},{"active":true,"address":"3561 Hemsedal","city":"Hemsedal","country":"no","created":"2016-05-02T21:44:16Z","description":"Apartments with modern architecture and large windows. The Alpin Lodge is situated ski in\/ski out right next to the children’s area. In the Lodge you will find almost everything you need; reception, grocery store, ski rental, ski shop, restaurant and bar. Walking distance to cross country trails, several restaurants, night life and sports bar with bowling and arcade games.","descriptions":[],"id":"34","latitude":60.862462,"links":[],"longitude":8.515868,"name":"Hemsedal Alpin Lodge","never_ending":true,"path_part":"hemsedal-alpin-lodge","phone":"","type":"bar","updated":"2016-05-02T21:44:16Z","urls":{},"wifi_ssid":"","zip":"4876"},{"active":true,"address":"3561 Hemsedal","city":"Hemsedal","country":"no","created":"2016-05-02T21:44:16Z","description":"Vi er en rendyrket boardshop hvor betjeningen og teamkjørerne tester alt av snowboardutstyr før vi kjøper inn varer så vi vet hva som selges i vår butikk. Vi har derfor mer kompetanse og kunnskap om produktene enn en sportsbutikk, og dette er helt klart en fordel for deg som kunde når du trenger veiledning ved kjøp av nytt utstyr hos oss.\n\nVed kjøp av snowboardsko varmer vi opp skoene og spesialtilpasser de til akkurat din fot i butikken.\n\nVi har også demoer på snowboard hvor du som kunde kan få testkjøre våre snowboard helt gratis så du får et bedre perspektiv på hvilket brett som passer for dine kjøreegenskaper. I våres testsenter i Hemsedaskianlegg får du mulighet til nettopp dette slik at du kan være helt sikker på at du gjør et godt kjøp. Følg vår facebook side for oppdateringer og hvor å hvilke dager vi har demo\/testsenter.","descriptions":[],"id":"35","latitude":60.86244,"links":[],"longitude":8.522689,"name":"Hemsedal Boardshop","never_ending":false,"path_part":"hemsedal-boardshop","phone":"","type":"bar","updated":"2016-05-02T21:44:16Z","urls":{},"wifi_ssid":"","zip":"4876"},{"active":true,"address":"3561 Hemsedal","city":"Hemsedal","country":"no","created":"2016-05-02T21:44:16Z","description":"Hemsedal café was established 14th february 1989, and has over 25 years history. “the menu at hemsedal café is inspired by food from all over the world and offer something for every taste.","descriptions":[],"id":"38","latitude":60.862769,"links":[],"longitude":8.55339,"name":"Hemsedal Cafe","never_ending":false,"path_part":"hemsedal-cafe","phone":"","type":"bar","updated":"2016-05-02T21:44:16Z","urls":{},"wifi_ssid":"","zip":"4876"},{"active":true,"address":"Hegdehaugsveien 24","city":"Oslo","country":"no","created":"2016-05-02T21:44:16Z","description":"Horgan is famous for their day time American diner that serves one of Bogstadveiens best Burgers & Fries. During the night Horgans turns into a fully packed club with DJ and their own roofed backyard (for those who smoke)\nHorgans is a Rescue Juice venue and offer Rescue Juice at the bar.\n ","descriptions":[],"id":"26","latitude":59.920994,"links":[],"longitude":10.727623,"name":"Horgans","never_ending":false,"path_part":"horgans-oslo","phone":"","type":"bar","updated":"2016-05-02T21:44:16Z","urls":{},"wifi_ssid":"kulturhuset","zip":"0352"},{"active":true,"address":"3561 Hemsedal","city":"Hemsedal","country":"no","created":"2016-05-02T21:44:16Z","description":"For et fullverdig utvalg av våre produkter, ønsker vi deg velkommen til vår BrandStore i Hemsedal Sentrum på Rampa Kjøpesenter. Alle våre produkter blir designet og utviklet i Hemsedal, inspirert av flott natur og fine folk.\nHer finner du hekla HyggeLuer med morsom tekst i knæsje farger, originalt Made by Mamma. Vi har også Slakkline, Goggles, Ski & TurSokker, Boxere og Klær for dame og herre. Alle produkter i nettbutikken vår er tilgjengelig i butikken i Hemsedal Sentrum.\n \nVi har også kontorer i samme lokaler som Hyggesjappa i Sentrum. Kom gjerne innom for en kaffekopp og hyggelig prat dersom det ikke har dumpet ned med pudder. Da er vi nemlig å finne i bakken :)","descriptions":[],"id":"37","latitude":60.862701,"links":[],"longitude":8.554018,"name":"House of Hygge","never_ending":false,"path_part":"house-of-hygge","phone":"","type":"bar","updated":"2016-05-02T21:44:16Z","urls":{},"wifi_ssid":"","zip":"4876"},{"active":true,"address":"Hemsedal - Sentrum","city":"Hemsedal","country":"no","created":"2016-05-02T21:44:16Z","description":"House of Hygge is an awesome retailer with everything you need to stay safe, warm and cozy during your stay in Hemsedal.\nHouse of Hygge is a Rescue Juice venue that sell pre-charged Rescue Juice\n\n ","descriptions":[],"id":"30","latitude":60.862251,"links":[],"longitude":8.517151,"name":"House of Hygge Brand Store","never_ending":false,"path_part":"house-of-hygge-brand-store","phone":"","type":"bar","updated":"2016-05-02T21:44:16Z","urls":{},"wifi_ssid":"","zip":"4876"},{"active":true,"address":"Torggata 16","city":"Oslo","country":"no","created":"2016-05-02T21:44:16Z","description":"John Dee live club is a rock institution in Oslo. Known for it’s rocked out style and new and breaking artist. Go to John Dee for an even more intimate rock experience.\nJohn Dee is a Never Ending Power Venue and offer free exchange of your Rescue Juice.\n\n ","descriptions":[],"id":"27","latitude":59.915837,"links":[],"longitude":10.750416,"name":"John Dee","never_ending":true,"path_part":"john-dee-oslo","phone":"","type":"bar","updated":"2016-05-02T21:44:16Z","urls":{},"wifi_ssid":"","zip":"0181"},{"active":true,"address":"Youngstorget 3","city":"Oslo","country":"no","created":"2016-05-02T21:44:16Z","description":"Kulturhuset is located at Youngstorget and serves as a co-working space during the day and a speakers corner in the late afternoon. At night the venue turns into a club with shuffleboard, table tennis and great music.\nKulturhuset is a Rescue Juice venue, offering Rescue Juice.\n\n ","descriptions":[],"id":"25","latitude":59.914322,"links":[],"longitude":10.749272,"name":"Kulturhuset","never_ending":false,"path_part":"kulturhuset-oslo","phone":"","type":"bar","updated":"2016-05-02T21:44:16Z","urls":{},"wifi_ssid":"","zip":"0181"},{"active":true,"address":"Universitetsgata 26","city":"Oslo","country":"no","created":"2016-05-02T21:44:16Z","description":"LAWO is one of the biggest clubs in Oslo. Their different sections makes this the go to bar for hooking up or just plain old partying.\nKulturhuset is a Rescue Juice venue, offering Rescue Juice.\n\n ","descriptions":[],"id":"23","latitude":59.914877,"links":[],"longitude":10.736917,"name":"LAWO","never_ending":false,"path_part":"lawo-oslo","phone":"","type":"bar","updated":"2016-05-02T21:44:16Z","urls":{},"wifi_ssid":"","zip":"0162"},{"active":true,"address":"Løkketangen 10A","city":"Sandvika","country":"no","created":"2016-05-02T21:44:17Z","description":"Løkka skal være mye for mange, og skal tilby tv for de store sportsøyeblikkene i vårt barområde, som har bredt utvalg av øl, og stort utvalg av spill for vennegjengen.\nSpill en runde monopol, scrable eller bezzerwizzer - eller knus dine venner på Løkkas flipperspill.\nI barområdet er det Shuffleboard, hjemmelaget Løkkaburger, fish & chips, fersk poppa popcorn og barkeepere som kan servere deg knallbra Løkkadrikke.\nLøkka Bistro serverer tapas fra Spania, dagsfersk og hjemmelaget pizza og pasta fra Italia.","descriptions":[],"id":"53","latitude":59.9128469,"links":[],"longitude":10.4831376,"name":"Løkka Traktering","never_ending":false,"path_part":"lokka-traktering-sandvika","phone":"92128000","type":"restaurant","updated":"2016-05-02T21:44:17Z","urls":{},"wifi_ssid":"","zip":"1337"},{"active":true,"address":"Tryvannsveien 64","city":"Oslo","country":"no","created":"2016-05-02T21:44:17Z","description":"The largest ski resort in the Oslo area, with 18 slopes and 11 lifts - just 30 minutes from the city centre. \n\nOslo Winter Park (formerly Tryvann) includes a terrain park in the Hyttli area, cruising slopes in Tryvann, slopes for children and beginners, and challenging slopes and an express lift in Wyller.\n\nTryvann: Chair lift, two slopes (green\/red, 400-900 metres)\nHyttli: Chair lift, five slopes (blue, 214-830 metres), terrain park, halfpipe, rails and jumps\nVestkleiva: T-bar lift, cross trail (blue, 500 metres), ski-cross\/boarder-cross (jumps, bumps etc.)\nWyller: Six-seat express lift, four slopes (black, 1300-1550 metres), Olympic-size super pipe\nTommkleiva: Two bowl lifts, two slopes (green, 200 metres)","descriptions":[],"id":"52","latitude":59.9513079,"links":[],"longitude":10.6197612,"name":"Oslo Vinterpark","never_ending":false,"path_part":"oslo-tryvann-vinterpark","phone":"22143610","type":"skiresort","updated":"2016-05-02T21:44:17Z","urls":{},"wifi_ssid":"","zip":"0161"},{"active":true,"address":"Nedre Langgate 20","city":"Tønsberg","country":"no","created":"2016-05-02T21:44:16Z","description":"Paparazzi is perfectly located by the ocean front of Trønsberg city center they serve up great food and turn into a club during the night. The perfect place for a lunch or and all nighter in Tønsberg.\nPaparazzi is a Rescue Juice venue.\n\n ","descriptions":[],"id":"9","latitude":59.265718,"links":[],"longitude":10.406534,"name":"Paparazzi","never_ending":false,"path_part":"paparazzi-tonsberg","phone":"","type":"bar","updated":"2016-05-02T21:44:16Z","urls":{},"wifi_ssid":"","zip":"3126"},{"active":true,"address":"Markens gate 10","city":"Kristiansand","country":"no","created":"2016-05-02T21:44:16Z","description":"Etsy whatever helvetica, sriracha freegan fingerstache flexitarian celiac vinyl kale chips you probably haven’t heard of them shoreditch brooklyn bespoke. Four dollar toast flannel meditation wolf, austin quinoa hashtag lumbersexual. Stumptown tilde jean shorts intelligentsia cornhole freegan. Knausgaard raw denim humblebrag intelligentsia vice, before they sold out everyday carry. PBR&B craft beer hashtag, master cleanse pabst biodiesel beard waistcoat chartreuse VHS church-key listicle drinking vinegar. Franzen yuccie actually, godard flannel green juice bicycle rights. Helvetica venmo chambray food truck, YOLO marfa readymade hashtag fingerstache hammock authentic echo park ugh literally iPhone.\nPhoto booth beard bespoke cliche. Butcher cliche before they sold out 90’s, sriracha thundercats post-ironic affogato semiotics letterpress banjo. Bitters ramps gluten-free, polaroid listicle raw denim godard meditation helvetica hammock humblebrag 8-bit gentrify mumblecore. XOXO yr cray humblebrag deep v plaid. Slow-carb yr tousled, yuccie church-key kombucha tofu affogato actually meditation. Authentic twee stumptown cray try-hard. Fanny pack four loko drinking vinegar farm-to-table crucifix.\nMeggings raw denim migas small batch, tacos chillwave cliche slow-carb keytar viral street art kinfolk PBR&B paleo. Poutine asymmetrical affogato twee, tacos selvage polaroid heirloom. Austin farm-to-table yr, retro mlkshk swag intelligentsia mustache. Cornhole austin PBR&B, franzen kogi biodiesel put a bird on it roof party literally poutine polaroid. Heirloom austin semiotics art party sartorial, actually viral truffaut 3 wolf moon polaroid brooklyn swag fixie single-origin coffee. IPhone banjo pug, fashion axe shabby chic selvage sriracha. Asymmetrical gastropub meditation, pickled actually marfa 8-bit.\nPoutine flexitarian XOXO, semiotics quinoa literally butcher. Mumblecore lumbersexual taxidermy pour-over authentic dreamcatcher echo park. Flexitarian banjo tote bag vegan occupy. Beard celiac hoodie kombucha irony. Vinyl helvetica celiac yuccie craft beer, chicharrones whatever messenger bag cold-pressed tote bag synth bicycle rights mumblecore fap photo booth. Shabby chic try-hard before they sold out pabst, beard small batch drinking vinegar seitan kale chips lumbersexual mustache selvage. Tacos sustainable distillery roof party, fingerstache ramps bushwick salvia.","descriptions":[],"id":"15","latitude":58.144747,"links":[],"longitude":7.994769,"name":"Patricks Pub","never_ending":false,"path_part":"patricks-pub-kristiansand","phone":"","type":"bar","updated":"2016-05-02T21:44:16Z","urls":{},"wifi_ssid":"","zip":"4611"},{"active":true,"address":"Henrik Ibsens gate 60A","city":"Oslo","country":"no","created":"2016-05-02T21:44:16Z","description":"\nPinerolo Americano\nHenrik Ibsens gate 60A, 0255 Oslo\nPinerolo Americano is the American counterpart of the Cantina. Wholesome American food refined to create a truly genuine American food experience. Located close to Solli plass this restaurant serves up the best burgers and fries in the area. The restaurant turns into a lounge and club during the night.\nPinerolo Americano is a Rescue Juice™ venue, offering Rescue Juice.\n","descriptions":[],"id":"44","latitude":59.915091,"links":[],"longitude":10.721807,"name":"Pinerolo Americano","never_ending":false,"path_part":"pinerolo-americano","phone":"","type":"bar","updated":"2016-05-02T21:44:16Z","urls":{},"wifi_ssid":"","zip":"0255"},{"active":true,"address":"Josefines Gate 23","city":"Oslo","country":"no","created":"2016-05-02T21:44:16Z","description":"Pinerolo Cantina is located at the heart of Oslos most busy shopping street Bogstadveien. Serving up what can only be said to be amazing Italian dished made to share. Pinerolo Cantina is one of the places to visit with friends to share great tasting food and wine. This places also become a club if you stay long enough.\nPinerolo Cantina is a Rescue Juice venue and offer Rescue Juice for sale at the bar.\n\n ","descriptions":[],"id":"43","latitude":59.923143,"links":[],"longitude":10.725953,"name":"Pinerolo Cantina","never_ending":false,"path_part":"pinerolo-cantina-oslo","phone":"","type":"bar","updated":"2016-05-02T21:44:16Z","urls":{},"wifi_ssid":"","zip":"0351"},{"active":true,"address":"Badstugata 1","city":"Oslo","country":"no","created":"2016-05-02T21:44:16Z","description":"Etsy whatever helvetica, sriracha freegan fingerstache flexitarian celiac vinyl kale chips you probably haven’t heard of them shoreditch brooklyn bespoke. Four dollar toast flannel meditation wolf, austin quinoa hashtag lumbersexual. Stumptown tilde jean shorts intelligentsia cornhole freegan. Knausgaard raw denim humblebrag intelligentsia vice, before they sold out everyday carry. PBR&B craft beer hashtag, master cleanse pabst biodiesel beard waistcoat chartreuse VHS church-key listicle drinking vinegar. Franzen yuccie actually, godard flannel green juice bicycle rights. Helvetica venmo chambray food truck, YOLO marfa readymade hashtag fingerstache hammock authentic echo park ugh literally iPhone.\nPhoto booth beard bespoke cliche. Butcher cliche before they sold out 90’s, sriracha thundercats post-ironic affogato semiotics letterpress banjo. Bitters ramps gluten-free, polaroid listicle raw denim godard meditation helvetica hammock humblebrag 8-bit gentrify mumblecore. XOXO yr cray humblebrag deep v plaid. Slow-carb yr tousled, yuccie church-key kombucha tofu affogato actually meditation. Authentic twee stumptown cray try-hard. Fanny pack four loko drinking vinegar farm-to-table crucifix.\nMeggings raw denim migas small batch, tacos chillwave cliche slow-carb keytar viral street art kinfolk PBR&B paleo. Poutine asymmetrical affogato twee, tacos selvage polaroid heirloom. Austin farm-to-table yr, retro mlkshk swag intelligentsia mustache. Cornhole austin PBR&B, franzen kogi biodiesel put a bird on it roof party literally poutine polaroid. Heirloom austin semiotics art party sartorial, actually viral truffaut 3 wolf moon polaroid brooklyn swag fixie single-origin coffee. IPhone banjo pug, fashion axe shabby chic selvage sriracha. Asymmetrical gastropub meditation, pickled actually marfa 8-bit.\nPoutine flexitarian XOXO, semiotics quinoa literally butcher. Mumblecore lumbersexual taxidermy pour-over authentic dreamcatcher echo park. Flexitarian banjo tote bag vegan occupy. Beard celiac hoodie kombucha irony. Vinyl helvetica celiac yuccie craft beer, chicharrones whatever messenger bag cold-pressed tote bag synth bicycle rights mumblecore fap photo booth. Shabby chic try-hard before they sold out pabst, beard small batch drinking vinegar seitan kale chips lumbersexual mustache selvage. Tacos sustainable distillery roof party, fingerstache ramps bushwick salvia.","descriptions":[],"id":"14","latitude":59.916227,"links":[],"longitude":10.750909,"name":"Piscoteket","never_ending":true,"path_part":"piscoteket","phone":"","type":"bar","updated":"2016-05-02T21:44:16Z","urls":{},"wifi_ssid":"","zip":"0179"},{"active":true,"address":"Grønland 41","city":"Drammen","country":"no","created":"2016-05-02T21:44:16Z","description":"Hos Puro hårstylister streber vi etter å gi kunden en unik opplevelse. Puro sine dyktige og erfarne stylister tilbyr det nyeste innen hårspa, klipp, extentions, farge og sminke. Puro Hårstylister tilbyr nå som en av få utvalgte et stort utvalg av mineral sminke fra GLO.\nHos oss finner du alt du trenger til håret. Vi samarbeider med KEUNE og Hempz hårprodukter som har ett bredt utvalg for alle hårtyper.\nPlei deg selv eller overrask noen du er glad i med en gave som gleder. Vi tilbyr nå også håndspa som vil gi nytt liv til dine hender.","descriptions":[],"id":"11","latitude":59.74264477,"links":[],"longitude":10.19491553,"name":"Puro Stylistene","never_ending":false,"path_part":"puro-stylistene","phone":"","type":"bar","updated":"2016-05-02T21:44:16Z","urls":{},"wifi_ssid":"","zip":"3045"},{"active":true,"address":"Torggata 16","city":"Oslo","country":"no","created":"2016-05-02T21:44:16Z","description":"Rockfeller Music Hall is one of the oldest concert arenas in Oslo. Rockfeller is always jam packed every day of the week and never stops serving it’s customers the best artists on earth.\nRockefeller is a Never Ending Power Venue and offer free exchange of your Rescue Juice.\n","descriptions":[],"id":"2","latitude":59.91588,"links":[],"longitude":10.750738,"name":"Rockefeller","never_ending":true,"path_part":"rockefeller-music-hall","phone":"","type":"bar","updated":"2016-05-02T21:44:16Z","urls":{},"wifi_ssid":"","zip":"0181"},{"active":true,"address":"Arbeidersamfunnets plass 1","city":"Oslo","country":"no","created":"2016-05-02T21:44:16Z","description":"1,750-capacity venue for big-name international rock bands, plus club nights & film screenings.\nSentrum Scene is owned by the Rockefeller group, and is known to show international super stars on their small and intimate stage. Sentrum Scene is one of the best stages in Oslo if you want that special intimate concert experience.\n\n ","descriptions":[],"id":"1","latitude":59.915518,"links":[],"longitude":10.751805,"name":"Sentrum Scene","never_ending":true,"path_part":"sentrum-scene","phone":"","type":"bar","updated":"2016-05-02T21:44:16Z","urls":{},"wifi_ssid":"","zip":"0181"},{"active":true,"address":"3561 Hemsedal","city":"Hemsedal","country":"no","created":"2016-05-02T21:44:16Z","description":"Forage disrupt kale chips authentic, retro gluten-free lo-fi brunch scenester wolf aesthetic umami shabby chic messenger bag. Chartreuse organic ugh, health goth lumbersexual authentic hammock locavore chambray whatever literally tacos kickstarter. Biodiesel echo park deep v irony, tumblr listicle keffiyeh mixtape stumptown pork belly paleo synth taxidermy chambray kinfolk. Bicycle rights +1 chia selvage godard. Distillery pitchfork chia, waistcoat sriracha tattooed blog deep v cray gluten-free next level ethical. Art party meditation fingerstache, PBR&B irony williamsburg before they sold out blog locavore knausgaard. Meggings biodiesel tattooed pitchfork distillery.\n\nYOLO butcher quinoa everyday carry seitan ethical. Art party 3 wolf moon pour-over cardigan. Occupy street art cardigan, fanny pack portland PBR&B meditation flannel cronut asymmetrical organic blog drinking vinegar. Sustainable freegan lo-fi, celiac butcher cornhole salvia heirloom keffiyeh. Lumbersexual trust fund etsy disrupt asymmetrical tofu normcore, four loko leggings quinoa locavore lomo. Kombucha four dollar toast cronut, pug etsy sriracha mustache godard roof party meditation thundercats try-hard bitters you probably haven’t heard of them sartorial. Pitchfork artisan roof party keytar beard bitters.\n ","descriptions":[],"id":"32","latitude":60.859855,"links":[],"longitude":8.516437,"name":"Ski Star Ski Shop","never_ending":false,"path_part":"skistar-ski-shop-2","phone":"","type":"bar","updated":"2016-05-02T21:44:16Z","urls":{},"wifi_ssid":"","zip":"4876"},{"active":true,"address":"3561 Hemsedal","city":"Hemsedal","country":"no","created":"2016-05-02T21:44:16Z","description":"Explore a mountain of opportunities by visiting our selection of restaurants and let your taste buds be your guide on a journey which explores both Norwegian roots and traditions, italian traditions, as well as diving into the definition of a proper burger joint.\nA la carte \/\/ Traditional home cooked meals inspired by norwegian and local roots, leveraging the abundance of access to local suppliers and produce. All this served in a casual bistro atmosphere. The restaurant strives to create a sophisticated yet simple and casual feel, both in our dining room and bar.\nOur restaurant is open from 09:00 where we offer healthy breakfast, snacks and supplies for a successful day out in winter wonderland. \n \nPizzeria \/\/\nRegardless of which tradition, honoring roots and traditional craftsmanship implies quality. When it comes to food, we regard old craftsmanship as off immense value and strongly believe it is recognized in its taste. With a wood burning stove of the highest quality and pizza chefs who have mastered the art of Italian pizza baking everything is in place to ensure that you have a wonderful experience with us up in the mountains. We are proud to offer a delicious \" italian style\" pizza that will keep you coming back for more.\n \nT-kroken Burger & Bar \/\/ \"There is no love more sincere than the love of food\" and this is something we take seriously. It is basically a concept that is all about \"really good burgers \" made from scratch using only the best local produce.\n ","descriptions":[],"id":"33","latitude":60.851542,"links":[],"longitude":8.488982,"name":"Skigaarden Ski Shop","never_ending":false,"path_part":"skigaarden-ski-shop","phone":"","type":"bar","updated":"2016-05-02T21:44:16Z","urls":{},"wifi_ssid":"","zip":"4876"},{"active":true,"address":"3561 Hemsedal","city":"Hemsedal","country":"no","created":"2016-05-02T21:44:16Z","description":"The Skistua building is located in the base area of Hemsedal Ski Center. At Skistua you'll find a restaurant serving lunch ala carte. When the lunch is over you will enjoy Hemsedals best après-ski and live band every weekend!\nSki holiday means enjoying life. Skistua provides the perfect stay for our quest with good food, beverage and apés-ski.","descriptions":[],"id":"36","latitude":60.860173,"links":[],"longitude":8.51696,"name":"Skistua Hemsedal","never_ending":false,"path_part":"skistua-hemsedal","phone":"","type":"bar","updated":"2016-05-02T21:44:16Z","urls":{},"wifi_ssid":"","zip":"4876"},{"active":true,"address":"Hemsedal - Sentrum","city":"Hemsedal","country":"no","created":"2016-05-02T21:44:16Z","description":"Stavkroa is the go to place for that true Norwegian after-ski experience.\nStavkroa is a Rescue Juice™ venue, offering Rescue Juice.","descriptions":[],"id":"46","latitude":60.862251,"links":[],"longitude":8.517151,"name":"Stavkroa","never_ending":false,"path_part":"stavkroa-hemsedal","phone":"","type":"bar","updated":"2016-05-02T21:44:16Z","urls":{},"wifi_ssid":"","zip":"0178"},{"active":true,"address":"Stranda Skisenter","city":"Stranda","country":"no","created":"2016-05-02T21:44:16Z","description":"Stranda Skiresort is located east in the magnificent \"Alps of Sunnmore\", in the western part of Norway. \n7 lifts,17 downhill slopes in various difficulties, children`s park, terrain park and perhaps the best off-piste opportunities in Scandinavia, provides something for every member of the Family. \nParts of the Resort have artificial lights for evening skiing, and a top modern snow making system ensures nice conditions throughout the season. \nCross-Country enthusiasts can enjoy 15 km of groomed tracks, and \"unlimited\" expedition possibilities. - See more at: http:\/\/www.strandafjellet.no\/resort-information\/stranda-skiresort#sthash.QxfHfV8Y.dpuf","descriptions":[],"id":"12","latitude":62.13855885,"links":[],"longitude":6.874694824,"name":"Stranda Skisenter","never_ending":false,"path_part":"stranda-skisenter","phone":"","type":"bar","updated":"2016-05-02T21:44:16Z","urls":{},"wifi_ssid":"","zip":"3045"},{"active":true,"address":"Karl Johans gate 37","city":"Oslo","country":"no","created":"2016-05-02T21:44:16Z","description":"Svean is the most on of the preferred fashion outlets for trend setters in Oslo. Their curated selection of old and new brands makes this the go to place for shopping what’s next in fashion.\nKulturhuset is a Rescue Juice venue, offering Rescue Juice.\n\n ","descriptions":[],"id":"24","latitude":59.914475,"links":[],"longitude":10.738109,"name":"Svean Paleet","never_ending":false,"path_part":"svean-paleet","phone":"","type":"bar","updated":"2016-05-02T21:44:16Z","urls":{},"wifi_ssid":"","zip":"0162"},{"active":true,"address":"Karl Johans gate 17","city":"Oslo","country":"no","created":"2016-05-02T21:44:17Z","description":"Dark wood, great selection of beers and food.  4-story pub with bar menu, big screen live sports & weekend, late-night DJs.","descriptions":[],"id":"48","latitude":59.912682,"links":[],"longitude":10.743556,"name":"The Scotsman","never_ending":true,"path_part":"the-scotsman-pub-oslo","phone":"","type":"bar","updated":"2016-05-02T21:44:17Z","urls":{},"wifi_ssid":"","zip":"0159"},{"active":true,"address":"Fredrikstad Sentrum","city":"Fredrikstad","country":"no","created":"2016-05-02T21:44:16Z","description":"Equipment for mountain sports\nShop clothes and equipment for the mountain holiday in skistarshop.com or in our Skistarshop Concept Stores when you are at the destination. Located in the Hemsedal Alpin Lodge","descriptions":[],"id":"29","latitude":59.21186,"links":[],"longitude":10.937642,"name":"Tiger Tiger","never_ending":false,"path_part":"tiger-tiger-fredrikstad","phone":"","type":"bar","updated":"2016-05-02T21:44:16Z","urls":{},"wifi_ssid":"","zip":"4876"},{"active":true,"address":"Torggata 11","city":"Oslo","country":"no","created":"2016-05-02T21:44:16Z","description":"Perfectly located just inside Strøget close to Youngstorget, Uhørt offers up a simple and tasty lunch, coffee and a relaxed environment. Free wifi and the ability to sit down and do some work during the day this place is a great alternative to other pricy co-working spaces if you need a place to work during the day. Uhørt turns into a live music, standup and poetry club during the night.\nUhørt is a Never Ending Power™ venue, offering Rescue Juice and unlimited refills for any Rescue Juice user. ","descriptions":[],"id":"3","latitude":59.913997,"links":[],"longitude":10.748527,"name":"Uhørt","never_ending":true,"path_part":"uhort-oslo","phone":"","type":"bar","updated":"2016-05-02T21:44:16Z","urls":{},"wifi_ssid":"","zip":"0181"},{"active":true,"address":"Aurdal","city":"Valdres","country":"no","created":"2016-05-02T21:44:16Z","description":"Located in the mountains of Valdres you find the Alpine Center, a great place to go skiing or snowobarding between November and April. You'll find free Never Ending Power in the bottom of the slope.","descriptions":[],"id":"17","latitude":60.935759,"links":[],"longitude":9.419668,"name":"Valdres Alpinsenter","never_ending":false,"path_part":"valdres-skisenter","phone":"","type":"bar","updated":"2016-05-02T21:44:16Z","urls":{},"wifi_ssid":"","zip":"2910"}]}